{"type":"FeatureCollection","features":[{"type": "Feature", "geometry": {"type": "Point", "coordinates": [-74.055967927, 4.656779851]}, "properties": {"tipo": "Parqueadero Bici", "cupo_bici": 10, "geopoint": [4.656779851, -74.055967927], "direccion": "Cl 73 No. 8 - 73", "x": -74.055967927, "y": 4.656779851, "nombre": "U. Santo Tomas. Ed Angelico"}},{"type": "Feature", "geometry": {"type": "Point", "coordinates": [-74.063821435, 4.637820164]}, "properties": {"tipo": "Parqueadero Bici", "cupo_bici": 29, "geopoint": [4.637820164, -74.063821435], "direccion": "CL 51 No. 7-43", "x": -74.063821435, "y": 4.637820164, "nombre": "U. Santo Tomas. CL 51"}},{"type": "Feature", "geometry": {"type": "Point", "coordinates": [-74.065670831, 4.634186714]}, "properties": {"tipo": "Parqueadero Bici", "cupo_bici": 44, "geopoint": [4.634186714, -74.065670831], "direccion": "Cl 47 AK 13", "x": -74.065670831, "y": 4.634186714, "nombre": "U. Catolica de Colombia"}},{"type": "Feature", "geometry": {"type": "Point", "coordinates": [-74.130359802, 4.629827983]}, "properties": {"tipo": "CicloEstacion", "cupo_bici": 32, "geopoint": [4.629827983, -74.130359802], "direccion": "AC 6 x KR 69 F", "x": -74.130359802, "y": 4.629827983, "nombre": "Estacion Marsella"}},{"type": "Feature", "geometry": {"type": "Point", "coordinates": [-74.05305446, 4.674332292]}, "properties": {"tipo": "Parqueadero Bici", "cupo_bici": 60, "geopoint": [4.674332292, -74.05305446], "direccion": "KR 15 No. 88 - 64", "x": -74.05305446, "y": 4.674332292, "nombre": "Torre Zimma"}},{"type": "Feature", "geometry": {"type": "Point", "coordinates": [-74.0574269, 4.6698436]}, "properties": {"tipo": "Parqueadero Bici", "cupo_bici": 10, "geopoint": [4.6698436, -74.0574269], "direccion": "KR 18 No. 84 - 11", "x": -74.0574269, "y": 4.6698436, "nombre": "Country Park"}},{"type": "Feature", "geometry": {"type": "Point", "coordinates": [-74.047072, 4.665284]}, "properties": {"tipo": "Parqueadero Bici", "cupo_bici": 15, "geopoint": [4.665284, -74.047072], "direccion": "CL 85 No.7-65", "x": -74.047072, "y": 4.665284, "nombre": "Body  Tech Cabrera"}},{"type": "Feature", "geometry": {"type": "Point", "coordinates": [-74.048837, 4.675633]}, "properties": {"tipo": "Parqueadero Bici", "cupo_bici": 6, "geopoint": [4.675633, -74.048837], "direccion": "KR 12 No.93-43", "x": -74.048837, "y": 4.675633, "nombre": "Parque de la 93"}},{"type": "Feature", "geometry": {"type": "Point", "coordinates": [-74.052791, 4.665508]}, "properties": {"tipo": "Parqueadero Bici", "cupo_bici": 18, "geopoint": [4.665508, -74.052791], "direccion": "CL 82 No.10-69", "x": -74.052791, "y": 4.665508, "nombre": "CL 82 No.10-69"}},{"type": "Feature", "geometry": {"type": "Point", "coordinates": [-74.066177, 4.626375]}, "properties": {"tipo": "Parqueadero Bici", "cupo_bici": 18, "geopoint": [4.626375, -74.066177], "direccion": "DG 40A No. 7-84", "x": -74.066177, "y": 4.626375, "nombre": "Plaza 39"}},{"type": "Feature", "geometry": {"type": "Point", "coordinates": [-74.046752, 4.6840487]}, "properties": {"tipo": "Parqueadero Bici", "cupo_bici": 8, "geopoint": [4.6840487, -74.046752], "direccion": "AC 100 No.13-67", "x": -74.046752, "y": 4.6840487, "nombre": "City Parking Cruz Verde"}},{"type": "Feature", "geometry": {"type": "Point", "coordinates": [-74.043986968, 4.680505956]}, "properties": {"tipo": "Parqueadero Bici", "cupo_bici": 8, "geopoint": [4.680505956, -74.043986968], "direccion": "CL 97A No. 10-50", "x": -74.043986968, "y": 4.680505956, "nombre": "Bogota Trade Center"}},{"type": "Feature", "geometry": {"type": "Point", "coordinates": [-74.061788321, 4.648708947]}, "properties": {"tipo": "Parqueadero Bici", "cupo_bici": 42, "geopoint": [4.648708947, -74.061788321], "direccion": "KR 9 No. 62 - 43", "x": -74.061788321, "y": 4.648708947, "nombre": "U. Konrad Lorenz"}},{"type": "Feature", "geometry": {"type": "Point", "coordinates": [-74.049984, 4.680353]}, "properties": {"tipo": "Parqueadero Bici", "cupo_bici": 4, "geopoint": [4.680353, -74.049984], "direccion": "AK 15 No. 94-72", "x": -74.049984, "y": 4.680353, "nombre": "City Parking CL 94"}},{"type": "Feature", "geometry": {"type": "Point", "coordinates": [-74.053801, 4.66528]}, "properties": {"tipo": "Parqueadero Bici", "cupo_bici": 3, "geopoint": [4.66528, -74.053801], "direccion": "CL 81 No. 11-34-44", "x": -74.053801, "y": 4.66528, "nombre": "Matildelina"}},{"type": "Feature", "geometry": {"type": "Point", "coordinates": [-74.0542819, 4.6681072]}, "properties": {"tipo": "Parqueadero Bici", "cupo_bici": 4, "geopoint": [4.6681072, -74.0542819], "direccion": "KR 13 No. 83 43", "x": -74.0542819, "y": 4.6681072, "nombre": "KR 13 No. 83-43"}},{"type": "Feature", "geometry": {"type": "Point", "coordinates": [-74.038948, 4.680051]}, "properties": {"tipo": "Parqueadero Bici", "cupo_bici": 80, "geopoint": [4.680051, -74.038948], "direccion": "AC 100 No. 7-33", "x": -74.038948, "y": 4.680051, "nombre": "Capital Tower"}},{"type": "Feature", "geometry": {"type": "Point", "coordinates": [-74.0462276, 4.6837911]}, "properties": {"tipo": "Parqueadero Bici", "cupo_bici": 126, "geopoint": [4.6837911, -74.0462276], "direccion": "AC 100 No 13-21", "x": -74.0462276, "y": 4.6837911, "nombre": "MegaTower"}},{"type": "Feature", "geometry": {"type": "Point", "coordinates": [-74.0549741, 4.6543323]}, "properties": {"tipo": "Parqueadero Bici", "cupo_bici": 7, "geopoint": [4.6543323, -74.0549741], "direccion": "CL 72 No.5-67", "x": -74.0549741, "y": 4.6543323, "nombre": "CL 72 No. 5-67"}},{"type": "Feature", "geometry": {"type": "Point", "coordinates": [-74.0495929, 4.6778841]}, "properties": {"tipo": "Parqueadero Bici", "cupo_bici": 12, "geopoint": [4.6778841, -74.0495929], "direccion": "CL 93B No.13-55", "x": -74.0495929, "y": 4.6778841, "nombre": "La Cancha"}},{"type": "Feature", "geometry": {"type": "Point", "coordinates": [-74.046057308, 4.697823296]}, "properties": {"tipo": "Parqueadero Bici", "cupo_bici": 8, "geopoint": [4.697823296, -74.046057308], "direccion": "KR 17 No. 116-14", "x": -74.046057308, "y": 4.697823296, "nombre": "City Parking Pepe Sierra"}},{"type": "Feature", "geometry": {"type": "Point", "coordinates": [-74.051655063, 4.690572154]}, "properties": {"tipo": "Parqueadero Bici", "cupo_bici": 8, "geopoint": [4.690572154, -74.051655063], "direccion": "AK 19 No. 104 -37", "x": -74.051655063, "y": 4.690572154, "nombre": "City Parking Chico 104"}},{"type": "Feature", "geometry": {"type": "Point", "coordinates": [-74.033783376, 4.693938499]}, "properties": {"tipo": "Parqueadero Bici", "cupo_bici": 52, "geopoint": [4.693938499, -74.033783376], "direccion": "AC 116 No. 7-02", "x": -74.033783376, "y": 4.693938499, "nombre": "Fundacion Santa Fe"}},{"type": "Feature", "geometry": {"type": "Point", "coordinates": [-74.050621899, 4.720185003]}, "properties": {"tipo": "Parqueadero Bici", "cupo_bici": 18, "geopoint": [4.720185003, -74.050621899], "direccion": "KR 23 No 134A - 21", "x": -74.050621899, "y": 4.720185003, "nombre": "KR 23 No 134A - 21"}},{"type": "Feature", "geometry": {"type": "Point", "coordinates": [-74.051848051, 4.688049766]}, "properties": {"tipo": "Parqueadero Bici", "cupo_bici": 30, "geopoint": [4.688049766, -74.051848051], "direccion": "AK 19 No. 102 -31", "x": -74.051848051, "y": 4.688049766, "nombre": "BodyTech Plaza"}},{"type": "Feature", "geometry": {"type": "Point", "coordinates": [-74.047328, 4.6870836]}, "properties": {"tipo": "Parqueadero Bici", "cupo_bici": 6, "geopoint": [4.6870836, -74.047328], "direccion": "CL 102 No. 14A-70", "x": -74.047328, "y": 4.6870836, "nombre": "Edificio Boutique"}},{"type": "Feature", "geometry": {"type": "Point", "coordinates": [-74.032272723, 4.69615489]}, "properties": {"tipo": "Parqueadero Bici", "cupo_bici": 14, "geopoint": [4.69615489, -74.032272723], "direccion": "CL 119 No. 7-14", "x": -74.032272723, "y": 4.69615489, "nombre": "Medical Center"}},{"type": "Feature", "geometry": {"type": "Point", "coordinates": [-74.045395036, 4.692769652]}, "properties": {"tipo": "Parqueadero Bici", "cupo_bici": 2, "geopoint": [4.692769652, -74.045395036], "direccion": "CL 109 No.15-37", "x": -74.045395036, "y": 4.692769652, "nombre": "Casa China"}},{"type": "Feature", "geometry": {"type": "Point", "coordinates": [-74.065736235, 4.749965975]}, "properties": {"tipo": "Parqueadero Bici", "cupo_bici": 30, "geopoint": [4.749965975, -74.065736235], "direccion": "AV Boyaca No. 165A-51", "x": -74.065736235, "y": 4.749965975, "nombre": "Clinica La Colina"}},{"type": "Feature", "geometry": {"type": "Point", "coordinates": [-74.08228308, 4.623749779]}, "properties": {"tipo": "Parqueadero Bici", "cupo_bici": 38, "geopoint": [4.623749779, -74.08228308], "direccion": "Cl  24 No. 29 - 45", "x": -74.08228308, "y": 4.623749779, "nombre": "Clinica Mederi  AK 30"}},{"type": "Feature", "geometry": {"type": "Point", "coordinates": [-74.091925621, 4.653122692]}, "properties": {"tipo": "Parqueadero Bici", "cupo_bici": 70, "geopoint": [4.653122692, -74.091925621], "direccion": "AK 60 No. 53-07", "x": -74.091925621, "y": 4.653122692, "nombre": "Parque Simon Bolivar"}},{"type": "Feature", "geometry": {"type": "Point", "coordinates": [-74.068614542, 4.623271226]}, "properties": {"tipo": "Parqueadero Bici", "cupo_bici": 10, "geopoint": [4.623271226, -74.068614542], "direccion": "KR 13A No. 34-70", "x": -74.068614542, "y": 4.623271226, "nombre": "Edificio  Torre 35"}},{"type": "Feature", "geometry": {"type": "Point", "coordinates": [-74.073113081, 4.650374128]}, "properties": {"tipo": "Parqueadero Bici", "cupo_bici": 10, "geopoint": [4.650374128, -74.073113081], "direccion": "AC 63 No. 24-45", "x": -74.073113081, "y": 4.650374128, "nombre": "Colsubsidio CL 63"}},{"type": "Feature", "geometry": {"type": "Point", "coordinates": [-74.054114, 4.670798]}, "properties": {"tipo": "Parqueadero Bici", "cupo_bici": 15, "geopoint": [4.670798, -74.054114], "direccion": "KR 14 No. 86A 11/15", "x": -74.054114, "y": 4.670798, "nombre": "KR 14 No. 86A -11"}},{"type": "Feature", "geometry": {"type": "Point", "coordinates": [-74.0464701, 4.6764445]}, "properties": {"tipo": "Parqueadero Bici", "cupo_bici": 32, "geopoint": [4.6764445, -74.0464701], "direccion": "KR 11 No. 93A 72", "x": -74.0464701, "y": 4.6764445, "nombre": "KR 11 No. 93A-72"}},{"type": "Feature", "geometry": {"type": "Point", "coordinates": [-74.108341, 4.597565]}, "properties": {"tipo": "Parqueadero Bici", "cupo_bici": 40, "geopoint": [4.597565, -74.108341], "direccion": "CL 12 Sur No. 31-37", "x": -74.108341, "y": 4.597565, "nombre": "Sultana"}},{"type": "Feature", "geometry": {"type": "Point", "coordinates": [-74.088651, 4.592316]}, "properties": {"tipo": "Parqueadero Bici", "cupo_bici": 38, "geopoint": [4.592316, -74.088651], "direccion": "Av. Caracas No. 1-13", "x": -74.088651, "y": 4.592316, "nombre": "Homi"}},{"type": "Feature", "geometry": {"type": "Point", "coordinates": [-74.071627, 4.612559]}, "properties": {"tipo": "Parqueadero Bici", "cupo_bici": 20, "geopoint": [4.612559, -74.071627], "direccion": "KR 13 No. 25-31", "x": -74.071627, "y": 4.612559, "nombre": "Fonade"}},{"type": "Feature", "geometry": {"type": "Point", "coordinates": [-74.097402857, 4.56435241]}, "properties": {"tipo": "CicloEstacion", "cupo_bici": 216, "geopoint": [4.56435241, -74.097402857], "direccion": "KR 5A x CL 32 Sur", "x": -74.097402857, "y": 4.56435241, "nombre": "Estacion Portal 20 de Julio"}},{"type": "Feature", "geometry": {"type": "Point", "coordinates": [-74.117431, 4.631126]}, "properties": {"tipo": "Centro Comercial", "cupo_bici": 24, "geopoint": [4.631126, -74.117431], "direccion": "AV Americas No. 62-84", "x": -74.117431, "y": 4.631126, "nombre": "Centro Comercial  Outlet Factory"}},{"type": "Feature", "geometry": {"type": "Point", "coordinates": [-74.175047092, 4.630721764]}, "properties": {"tipo": "CicloEstacion", "cupo_bici": 785, "geopoint": [4.630721764, -74.175047092], "direccion": "AC 43 Sur  x AK 86", "x": -74.175047092, "y": 4.630721764, "nombre": "Estacion Portal Americas"}},{"type": "Feature", "geometry": {"type": "Point", "coordinates": [-74.037042669, 4.690919055]}, "properties": {"tipo": "Centro Comercial", "cupo_bici": 100, "geopoint": [4.690919055, -74.037042669], "direccion": "AK  9 No. 110-50", "x": -74.037042669, "y": 4.690919055, "nombre": "Centro Comercial Santa Ana"}},{"type": "Feature", "geometry": {"type": "Point", "coordinates": [-74.064290636, 4.688090497]}, "properties": {"tipo": "Centro Comercial", "cupo_bici": 197, "geopoint": [4.688090497, -74.064290636], "direccion": "TV 55 No. 98A-66", "x": -74.064290636, "y": 4.688090497, "nombre": "Centro Comercial Iserra 100"}},{"type": "Feature", "geometry": {"type": "Point", "coordinates": [-74.109193438, 4.661487939]}, "properties": {"tipo": "CicloEstacion", "cupo_bici": 104, "geopoint": [4.661487939, -74.109193438], "direccion": "AC 26 x AK 70", "x": -74.109193438, "y": 4.661487939, "nombre": "Estacion AV. Rojas"}},{"type": "Feature", "geometry": {"type": "Point", "coordinates": [-74.092046152, 4.613753048]}, "properties": {"tipo": "CicloEstacion", "cupo_bici": 165, "geopoint": [4.613753048, -74.092046152], "direccion": "AK 30 x AC 13", "x": -74.092046152, "y": 4.613753048, "nombre": "Estacion Ricaurte"}},{"type": "Feature", "geometry": {"type": "Point", "coordinates": [-74.068061755, 4.602199737]}, "properties": {"tipo": "Punto de Encuentro", "cupo_bici": 94, "geopoint": [4.602199737, -74.068061755], "direccion": "KR 2A x CL 19", "x": -74.068061755, "y": 4.602199737, "nombre": "Aguas"}},{"type": "Feature", "geometry": {"type": "Point", "coordinates": [-74.0493071, 4.702884]}, "properties": {"tipo": "Centro Comercial", "cupo_bici": 32, "geopoint": [4.702884, -74.0493071], "direccion": "AK 19 No.122-49", "x": -74.0493071, "y": 4.702884, "nombre": "Centro Comercial Santa Barbara Drive"}},{"type": "Feature", "geometry": {"type": "Point", "coordinates": [-74.062068964, 4.756286142]}, "properties": {"tipo": "Biblioteca", "cupo_bici": 60, "geopoint": [4.756286142, -74.062068964], "direccion": "CL 170 No. 67-51", "x": -74.062068964, "y": 4.756286142, "nombre": "Centro Cultural y Biblioteca JMSD"}},{"type": "Feature", "geometry": {"type": "Point", "coordinates": [-74.18363286, 4.63907604]}, "properties": {"tipo": "Centro Comercial", "cupo_bici": 23, "geopoint": [4.63907604, -74.18363286], "direccion": "KR 95A No. 49C-48 Sur", "x": -74.18363286, "y": 4.63907604, "nombre": "Centro Comercial Trebolis"}},{"type": "Feature", "geometry": {"type": "Point", "coordinates": [-74.062480169, 4.723451867]}, "properties": {"tipo": "Centro Comercial", "cupo_bici": 50, "geopoint": [4.723451867, -74.062480169], "direccion": "CL 134 No. 55-30", "x": -74.062480169, "y": 4.723451867, "nombre": "Centro Comercial San Rafael"}},{"type": "Feature", "geometry": {"type": "Point", "coordinates": [-74.093218, 4.569286]}, "properties": {"tipo": "Centro Comercial", "cupo_bici": 14, "geopoint": [4.569286, -74.093218], "direccion": "CL 25B Sur No. 5-87", "x": -74.093218, "y": 4.569286, "nombre": "Centro Comercial 20 de Julio"}},{"type": "Feature", "geometry": {"type": "Point", "coordinates": [-74.046398684, 4.762294869]}, "properties": {"tipo": "Centro Comercial", "cupo_bici": 600, "geopoint": [4.762294869, -74.046398684], "direccion": "AK 45 No. 183-49", "x": -74.046398684, "y": 4.762294869, "nombre": "Centro Comercial Santa Fe"}},{"type": "Feature", "geometry": {"type": "Point", "coordinates": [-74.043545909, 4.703653601]}, "properties": {"tipo": "Centro Comercial", "cupo_bici": 22, "geopoint": [4.703653601, -74.043545909], "direccion": "CL 127 No.15A-03", "x": -74.043545909, "y": 4.703653601, "nombre": "Centro Comercial Metro 127"}},{"type": "Feature", "geometry": {"type": "Point", "coordinates": [-74.134386208, 4.629507454]}, "properties": {"tipo": "Punto de Encuentro", "cupo_bici": 36, "geopoint": [4.629507454, -74.134386208], "direccion": "AC 6 x KR 71B", "x": -74.134386208, "y": 4.629507454, "nombre": "Mundo Aventura"}},{"type": "Feature", "geometry": {"type": "Point", "coordinates": [-74.079635739, 4.663826779]}, "properties": {"tipo": "Parqueadero Bici", "cupo_bici": 50, "geopoint": [4.663826779, -74.079635739], "direccion": "KR 52 No. 65A-07", "x": -74.079635739, "y": 4.663826779, "nombre": "Clinica Mederi Barrios Unidos"}},{"type": "Feature", "geometry": {"type": "Point", "coordinates": [-74.128977729, 4.593513146]}, "properties": {"tipo": "CicloEstacion", "cupo_bici": 48, "geopoint": [4.593513146, -74.128977729], "direccion": "AC 45A Sur x KR 50", "x": -74.128977729, "y": 4.593513146, "nombre": "Estacion General Santander"}},{"type": "Feature", "geometry": {"type": "Point", "coordinates": [-74.121864301, 4.68227121]}, "properties": {"tipo": "CicloEstacion", "cupo_bici": 332, "geopoint": [4.68227121, -74.121864301], "direccion": "AC 26 x TV 95A", "x": -74.121864301, "y": 4.68227121, "nombre": "Estacion Portal El Dorado"}},{"type": "Feature", "geometry": {"type": "Point", "coordinates": [-74.095457128, 4.747039427]}, "properties": {"tipo": "CicloEstacion", "cupo_bici": 324, "geopoint": [4.747039427, -74.095457128], "direccion": "AC 145 x AK 104", "x": -74.095457128, "y": 4.747039427, "nombre": "Estacion Portal Suba"}},{"type": "Feature", "geometry": {"type": "Point", "coordinates": [-74.080891806, 4.594117423]}, "properties": {"tipo": "CicloEstacion", "cupo_bici": 116, "geopoint": [4.594117423, -74.080891806], "direccion": "KR 10 x CL 5", "x": -74.080891806, "y": 4.594117423, "nombre": "Estacion Bicentenario"}},{"type": "Feature", "geometry": {"type": "Point", "coordinates": [-74.205972196, 4.585755022]}, "properties": {"tipo": "CicloEstacion", "cupo_bici": 650, "geopoint": [4.585755022, -74.205972196], "direccion": "San Mateo-Soacha-", "x": -74.205972196, "y": 4.585755022, "nombre": "Estacion San Mateo"}},{"type": "Feature", "geometry": {"type": "Point", "coordinates": [-74.146104754, 4.630964315]}, "properties": {"tipo": "CicloEstacion", "cupo_bici": 101, "geopoint": [4.630964315, -74.146104754], "direccion": "AC 6  x KR 78C", "x": -74.146104754, "y": 4.630964315, "nombre": "Estacion Banderas"}},{"type": "Feature", "geometry": {"type": "Point", "coordinates": [-74.11862966, 4.628531329]}, "properties": {"tipo": "CicloEstacion", "cupo_bici": 32, "geopoint": [4.628531329, -74.11862966], "direccion": "AC 9 x KR  64A", "x": -74.11862966, "y": 4.628531329, "nombre": "Estacion Pradera"}},{"type": "Feature", "geometry": {"type": "Point", "coordinates": [-74.13579, 4.692501]}, "properties": {"tipo": "Parqueadero Bici", "cupo_bici": 83, "geopoint": [4.692501, -74.13579], "direccion": "AC 26 No.106 - 39", "x": -74.13579, "y": 4.692501, "nombre": "Cargo Port"}},{"type": "Feature", "geometry": {"type": "Point", "coordinates": [-74.129793, 4.689444]}, "properties": {"tipo": "Parqueadero Bici", "cupo_bici": 41, "geopoint": [4.689444, -74.129793], "direccion": "AC 26 No. 102-20", "x": -74.129793, "y": 4.689444, "nombre": "Buro 26"}},{"type": "Feature", "geometry": {"type": "Point", "coordinates": [-74.094432231, 4.633338953]}, "properties": {"tipo": "Parqueadero Bici", "cupo_bici": 9, "geopoint": [4.633338953, -74.094432231], "direccion": "AC 24 No. 43A-90", "x": -74.094432231, "y": 4.633338953, "nombre": "Los Hornitos Esperanza I"}},{"type": "Feature", "geometry": {"type": "Point", "coordinates": [-74.078022543, 4.62339378]}, "properties": {"tipo": "Parqueadero Bici", "cupo_bici": 30, "geopoint": [4.62339378, -74.078022543], "direccion": "AC 26 No. 25-40", "x": -74.078022543, "y": 4.62339378, "nombre": "Teatro Colsubsidio CL 26"}},{"type": "Feature", "geometry": {"type": "Point", "coordinates": [-74.079752874, 4.635055292]}, "properties": {"tipo": "Parqueadero Bici", "cupo_bici": 6, "geopoint": [4.635055292, -74.079752874], "direccion": "AK 30 No. 45-03", "x": -74.079752874, "y": 4.635055292, "nombre": "Universidad Nacional"}},{"type": "Feature", "geometry": {"type": "Point", "coordinates": [-74.159597, 4.618721]}, "properties": {"tipo": "Parqueadero Bici", "cupo_bici": 20, "geopoint": [4.618721, -74.159597], "direccion": "TV 78J No 41F-05 Sur", "x": -74.159597, "y": 4.618721, "nombre": "BodyTech Kennedy"}},{"type": "Feature", "geometry": {"type": "Point", "coordinates": [-74.089665316, 4.618325585]}, "properties": {"tipo": "Parqueadero Bici", "cupo_bici": 20, "geopoint": [4.618325585, -74.089665316], "direccion": "AK 30 x AC 19", "x": -74.089665316, "y": 4.618325585, "nombre": "Tienda Jumbo AK 30"}},{"type": "Feature", "geometry": {"type": "Point", "coordinates": [-74.047211, 4.679475]}, "properties": {"tipo": "Parqueadero Bici", "cupo_bici": 20, "geopoint": [4.679475, -74.047211], "direccion": "CL 95 No. 11A -67", "x": -74.047211, "y": 4.679475, "nombre": "City Parking CL 95"}},{"type": "Feature", "geometry": {"type": "Point", "coordinates": [-74.044223752, 4.681810812]}, "properties": {"tipo": "Parqueadero Bici", "cupo_bici": 40, "geopoint": [4.681810812, -74.044223752], "direccion": "AK 11 No. 98-07", "x": -74.044223752, "y": 4.681810812, "nombre": "Edificio Pijao"}},{"type": "Feature", "geometry": {"type": "Point", "coordinates": [-74.055275917, 4.655550107]}, "properties": {"tipo": "Parqueadero Bici", "cupo_bici": 10, "geopoint": [4.655550107, -74.055275917], "direccion": "KR 7 No. 72 - 41", "x": -74.055275917, "y": 4.655550107, "nombre": "Hotel Hilton"}},{"type": "Feature", "geometry": {"type": "Point", "coordinates": [-74.049482448, 4.675171466]}, "properties": {"tipo": "Parqueadero Bici", "cupo_bici": 16, "geopoint": [4.675171466, -74.049482448], "direccion": "CL 93 No. 12-41", "x": -74.049482448, "y": 4.675171466, "nombre": "Hotel Atton"}},{"type": "Feature", "geometry": {"type": "Point", "coordinates": [-74.039531, 4.680343]}, "properties": {"tipo": "Parqueadero Bici", "cupo_bici": 8, "geopoint": [4.680343, -74.039531], "direccion": "CL 100 No. 7 A- 81", "x": -74.039531, "y": 4.680343, "nombre": "Universa"}},{"type": "Feature", "geometry": {"type": "Point", "coordinates": [-74.073441, 4.687276]}, "properties": {"tipo": "Parqueadero Bici", "cupo_bici": 20, "geopoint": [4.687276, -74.073441], "direccion": "CL 94A No. 67A-74", "x": -74.073441, "y": 4.687276, "nombre": "Centro de Dise\u00f1o la Floresta"}},{"type": "Feature", "geometry": {"type": "Point", "coordinates": [-74.054299, 4.642882]}, "properties": {"tipo": "Parqueadero Bici", "cupo_bici": 20, "geopoint": [4.642882, -74.054299], "direccion": "AV Circunvalar No 60-00", "x": -74.054299, "y": 4.642882, "nombre": "U. Manuela Beltran"}},{"type": "Feature", "geometry": {"type": "Point", "coordinates": [-74.051956622, 4.676892551]}, "properties": {"tipo": "Parqueadero Bici", "cupo_bici": 6, "geopoint": [4.676892551, -74.051956622], "direccion": "KR 15 No. 93-07/09", "x": -74.051956622, "y": 4.676892551, "nombre": "Externado 93"}},{"type": "Feature", "geometry": {"type": "Point", "coordinates": [-74.0616881, 4.643608]}, "properties": {"tipo": "Parqueadero Bici", "cupo_bici": 10, "geopoint": [4.643608, -74.0616881], "direccion": "KR 7 No 58-18", "x": -74.0616881, "y": 4.643608, "nombre": "Surtifruver Chapinero"}},{"type": "Feature", "geometry": {"type": "Point", "coordinates": [-74.057361675, 4.683458282]}, "properties": {"tipo": "Parqueadero Bici", "cupo_bici": 4, "geopoint": [4.683458282, -74.057361675], "direccion": "AK 45 No. 95-08", "x": -74.057361675, "y": 4.683458282, "nombre": "AK 45 No. 95-08"}},{"type": "Feature", "geometry": {"type": "Point", "coordinates": [-74.061064, 4.644907]}, "properties": {"tipo": "Parqueadero Bici", "cupo_bici": 8, "geopoint": [4.644907, -74.061064], "direccion": "CL 59A Bis No. 5-53", "x": -74.061064, "y": 4.644907, "nombre": "Link 7-60"}},{"type": "Feature", "geometry": {"type": "Point", "coordinates": [-74.050733, 4.676082]}, "properties": {"tipo": "Parqueadero Bici", "cupo_bici": 6, "geopoint": [4.676082, -74.050733], "direccion": "CL 93 13-71", "x": -74.050733, "y": 4.676082, "nombre": "Hotel  Best Western"}},{"type": "Feature", "geometry": {"type": "Point", "coordinates": [-74.06580627, 4.633181753]}, "properties": {"tipo": "Parqueadero Bici", "cupo_bici": 24, "geopoint": [4.633181753, -74.06580627], "direccion": "Cl 46 No. 9-  20", "x": -74.06580627, "y": 4.633181753, "nombre": "U. Piloto"}},{"type": "Feature", "geometry": {"type": "Point", "coordinates": [-74.051728, 4.667328]}, "properties": {"tipo": "Parqueadero Bici", "cupo_bici": 8, "geopoint": [4.667328, -74.051728], "direccion": "KR 11 No 84 -50", "x": -74.051728, "y": 4.667328, "nombre": "Calle 84"}},{"type": "Feature", "geometry": {"type": "Point", "coordinates": [-74.054378, 4.653001]}, "properties": {"tipo": "Parqueadero Bici", "cupo_bici": 6, "geopoint": [4.653001, -74.054378], "direccion": "KR 5 No. 70A -74", "x": -74.054378, "y": 4.653001, "nombre": "Emaus"}},{"type": "Feature", "geometry": {"type": "Point", "coordinates": [-74.046992, 4.687669385]}, "properties": {"tipo": "Parqueadero Bici", "cupo_bici": 22, "geopoint": [4.687669385, -74.046992], "direccion": "CL 103 No. 14A -53", "x": -74.046992, "y": 4.687669385, "nombre": "Bogota Busines Center"}},{"type": "Feature", "geometry": {"type": "Point", "coordinates": [-74.046298346, 4.697000942]}, "properties": {"tipo": "Parqueadero Bici", "cupo_bici": 18, "geopoint": [4.697000942, -74.046298346], "direccion": "AC 116 No. 17-13", "x": -74.046298346, "y": 4.697000942, "nombre": "Archies Pepe Sierra"}},{"type": "Feature", "geometry": {"type": "Point", "coordinates": [-74.053834304, 4.704516861]}, "properties": {"tipo": "Parqueadero Bici", "cupo_bici": 7, "geopoint": [4.704516861, -74.053834304], "direccion": "AK 45 No.123-24", "x": -74.053834304, "y": 4.704516861, "nombre": "City Parking 123"}},{"type": "Feature", "geometry": {"type": "Point", "coordinates": [-74.116803, 4.680198]}, "properties": {"tipo": "Parqueadero Bici", "cupo_bici": 20, "geopoint": [4.680198, -74.116803], "direccion": "AK 86 No. 51-66", "x": -74.116803, "y": 4.680198, "nombre": "World Business Center"}},{"type": "Feature", "geometry": {"type": "Point", "coordinates": [-74.0468148, 4.7191703]}, "properties": {"tipo": "Parqueadero Bici", "cupo_bici": 1, "geopoint": [4.7191703, -74.0468148], "direccion": "AK 19 No. 134A-18", "x": -74.0468148, "y": 4.7191703, "nombre": "Bufallo Wings 134"}},{"type": "Feature", "geometry": {"type": "Point", "coordinates": [-74.02926, 4.69566]}, "properties": {"tipo": "Parqueadero Bici", "cupo_bici": 16, "geopoint": [4.69566, -74.02926], "direccion": "KR 5 No.119-70", "x": -74.02926, "y": 4.69566, "nombre": "City Parking Valmaria"}},{"type": "Feature", "geometry": {"type": "Point", "coordinates": [-74.110333, 4.668003]}, "properties": {"tipo": "Parqueadero Bici", "cupo_bici": 20, "geopoint": [4.668003, -74.110333], "direccion": "AK 72 No. 49-15", "x": -74.110333, "y": 4.668003, "nombre": "BodyTech Normandia"}},{"type": "Feature", "geometry": {"type": "Point", "coordinates": [-74.147446397, 4.594742806]}, "properties": {"tipo": "Parqueadero Bici", "cupo_bici": 15, "geopoint": [4.594742806, -74.147446397], "direccion": "Autopista Sur No. 60A-99", "x": -74.147446397, "y": 4.594742806, "nombre": "Gran Centro Automotriz"}},{"type": "Feature", "geometry": {"type": "Point", "coordinates": [-74.067576187, 4.613697992]}, "properties": {"tipo": "Parqueadero Bici", "cupo_bici": 10, "geopoint": [4.613697992, -74.067576187], "direccion": "CL 27 No. 5 44", "x": -74.067576187, "y": 4.613697992, "nombre": "Plaza de Toros La Santamaria"}},{"type": "Feature", "geometry": {"type": "Point", "coordinates": [-74.071686726, 4.715175406]}, "properties": {"tipo": "Parqueadero Bici", "cupo_bici": 8, "geopoint": [4.715175406, -74.071686726], "direccion": "CL 128 Bis A No. 58A-66", "x": -74.071686726, "y": 4.715175406, "nombre": "City Parking"}},{"type": "Feature", "geometry": {"type": "Point", "coordinates": [-74.090868831, 4.57673508]}, "properties": {"tipo": "Parqueadero Bici", "cupo_bici": 15, "geopoint": [4.57673508, -74.090868831], "direccion": "KR 8 No. 17-45 Sur", "x": -74.090868831, "y": 4.57673508, "nombre": "Clinica San Rafael"}},{"type": "Feature", "geometry": {"type": "Point", "coordinates": [-74.04781547, 4.693968146]}, "properties": {"tipo": "Parqueadero Bici", "cupo_bici": 14, "geopoint": [4.693968146, -74.04781547], "direccion": "CL 109 No.17-46", "x": -74.04781547, "y": 4.693968146, "nombre": "CL 109 No.17-46"}},{"type": "Feature", "geometry": {"type": "Point", "coordinates": [-74.046125, 4.697837]}, "properties": {"tipo": "Parqueadero Bici", "cupo_bici": 2, "geopoint": [4.697837, -74.046125], "direccion": "KR 17 No. 116-15", "x": -74.046125, "y": 4.697837, "nombre": "Bufalo Wings 116"}},{"type": "Feature", "geometry": {"type": "Point", "coordinates": [-74.056322, 4.694276]}, "properties": {"tipo": "Parqueadero Bici", "cupo_bici": 10, "geopoint": [4.694276, -74.056322], "direccion": "AK 45 No. 106 - 23", "x": -74.056322, "y": 4.694276, "nombre": "SIM Autopista"}},{"type": "Feature", "geometry": {"type": "Point", "coordinates": [-74.04902, 4.70475]}, "properties": {"tipo": "Parqueadero Bici", "cupo_bici": 28, "geopoint": [4.70475, -74.04902], "direccion": "AK 19 No. 125 17", "x": -74.04902, "y": 4.70475, "nombre": "AK 19 No. 125 17"}},{"type": "Feature", "geometry": {"type": "Point", "coordinates": [-74.07045, 4.598781]}, "properties": {"tipo": "Parqueadero Bici", "cupo_bici": 4, "geopoint": [4.598781, -74.07045], "direccion": "CL 12C No. 3 -32", "x": -74.07045, "y": 4.598781, "nombre": "Candelaria"}},{"type": "Feature", "geometry": {"type": "Point", "coordinates": [-74.117473, 4.637033]}, "properties": {"tipo": "Parqueadero Bici", "cupo_bici": 15, "geopoint": [4.637033, -74.117473], "direccion": "AC 13 No. 66-70", "x": -74.117473, "y": 4.637033, "nombre": "Autolavado"}},{"type": "Feature", "geometry": {"type": "Point", "coordinates": [-74.144434326, 4.674803748]}, "properties": {"tipo": "Centro Comercial", "cupo_bici": 22, "geopoint": [4.674803748, -74.144434326], "direccion": "KR 100 No. 18-59", "x": -74.144434326, "y": 4.674803748, "nombre": "Centro Comercial Fiesta Fontibon"}},{"type": "Feature", "geometry": {"type": "Point", "coordinates": [-74.17020455, 4.598052513]}, "properties": {"tipo": "CicloEstacion", "cupo_bici": 220, "geopoint": [4.598052513, -74.17020455], "direccion": "AC 57R Sur x  TV 73I", "x": -74.17020455, "y": 4.598052513, "nombre": "Estacion Portal del Sur"}},{"type": "Feature", "geometry": {"type": "Point", "coordinates": [-74.026658886, 4.723093461]}, "properties": {"tipo": "Centro Comercial", "cupo_bici": 22, "geopoint": [4.723093461, -74.026658886], "direccion": "AC 147 No. 7-70", "x": -74.026658886, "y": 4.723093461, "nombre": "Centro Comercial Show Place"}},{"type": "Feature", "geometry": {"type": "Point", "coordinates": [-74.042756869, 4.700959022]}, "properties": {"tipo": "Centro Comercial", "cupo_bici": 50, "geopoint": [4.700959022, -74.042756869], "direccion": "AK 15 No. 124-30", "x": -74.042756869, "y": 4.700959022, "nombre": "Centro Comercial Unicentro"}},{"type": "Feature", "geometry": {"type": "Point", "coordinates": [-74.092840613, 4.637080538]}, "properties": {"tipo": "CicloEstacion", "cupo_bici": 48, "geopoint": [4.637080538, -74.092840613], "direccion": "AC 26 x KR 45", "x": -74.092840613, "y": 4.637080538, "nombre": "Estacion Quinta Paredes"}},{"type": "Feature", "geometry": {"type": "Point", "coordinates": [-74.160553746, 4.638957933]}, "properties": {"tipo": "Punto de Encuentro", "cupo_bici": 36, "geopoint": [4.638957933, -74.160553746], "direccion": "AK 86 x CL 58 Sur", "x": -74.160553746, "y": 4.638957933, "nombre": "Tintal"}},{"type": "Feature", "geometry": {"type": "Point", "coordinates": [-74.050556713, 4.721401314]}, "properties": {"tipo": "Punto de Encuentro", "cupo_bici": 36, "geopoint": [4.721401314, -74.050556713], "direccion": "AK 45  x CL 136", "x": -74.050556713, "y": 4.721401314, "nombre": "Alcala"}},{"type": "Feature", "geometry": {"type": "Point", "coordinates": [-74.0587158, 4.6831482]}, "properties": {"tipo": "Parqueadero Bici", "cupo_bici": 4, "geopoint": [4.6831482, -74.0587158], "direccion": "KR 45A No. 94-66", "x": -74.0587158, "y": 4.6831482, "nombre": "Castellana"}},{"type": "Feature", "geometry": {"type": "Point", "coordinates": [-74.044242341, 4.696465123]}, "properties": {"tipo": "Parqueadero Bici", "cupo_bici": 10, "geopoint": [4.696465123, -74.044242341], "direccion": "AC 116 No. 15-65", "x": -74.044242341, "y": 4.696465123, "nombre": "Corral Gourmet Pepe Sierra"}},{"type": "Feature", "geometry": {"type": "Point", "coordinates": [-74.049498439, 4.698680763]}, "properties": {"tipo": "Parqueadero Bici", "cupo_bici": 8, "geopoint": [4.698680763, -74.049498439], "direccion": "AC 116 No.18B-80", "x": -74.049498439, "y": 4.698680763, "nombre": "Sandwich Qbano CL 116"}},{"type": "Feature", "geometry": {"type": "Point", "coordinates": [-74.046471857, 4.748303308]}, "properties": {"tipo": "Parqueadero Bici", "cupo_bici": 12, "geopoint": [4.748303308, -74.046471857], "direccion": "AK 45 No.166-56", "x": -74.046471857, "y": 4.748303308, "nombre": "BodyTech Auto Norte"}},{"type": "Feature", "geometry": {"type": "Point", "coordinates": [-74.053848474, 4.704296973]}, "properties": {"tipo": "Parqueadero Bici", "cupo_bici": 4, "geopoint": [4.704296973, -74.053848474], "direccion": "AK 45 No. 123-14", "x": -74.053848474, "y": 4.704296973, "nombre": "Drogueria Cruz verde"}},{"type": "Feature", "geometry": {"type": "Point", "coordinates": [-74.048489928, 4.698154143]}, "properties": {"tipo": "Parqueadero Bici", "cupo_bici": 10, "geopoint": [4.698154143, -74.048489928], "direccion": "AC 116 No.18-77", "x": -74.048489928, "y": 4.698154143, "nombre": "Movistar Cl 116"}},{"type": "Feature", "geometry": {"type": "Point", "coordinates": [-74.04472, 4.70111]}, "properties": {"tipo": "Parqueadero Bici", "cupo_bici": 4, "geopoint": [4.70111, -74.04472], "direccion": "CL 122 No. 15A -64", "x": -74.04472, "y": 4.70111, "nombre": "City Parking CL 122"}},{"type": "Feature", "geometry": {"type": "Point", "coordinates": [-74.051316964, 4.689704411]}, "properties": {"tipo": "Parqueadero Bici", "cupo_bici": 3, "geopoint": [4.689704411, -74.051316964], "direccion": "AK 19 No.103-72", "x": -74.051316964, "y": 4.689704411, "nombre": "Imevi AV 19"}},{"type": "Feature", "geometry": {"type": "Point", "coordinates": [-74.023935931, 4.732837609]}, "properties": {"tipo": "Parqueadero Bici", "cupo_bici": 31, "geopoint": [4.732837609, -74.023935931], "direccion": "AK 7 No. 156-80", "x": -74.023935931, "y": 4.732837609, "nombre": "Nort Point"}},{"type": "Feature", "geometry": {"type": "Point", "coordinates": [-74.07226, 4.723717]}, "properties": {"tipo": "Parqueadero Bici", "cupo_bici": 6, "geopoint": [4.723717, -74.07226], "direccion": "KR  59D No.131-45", "x": -74.07226, "y": 4.723717, "nombre": "Jungla Kumba"}},{"type": "Feature", "geometry": {"type": "Point", "coordinates": [-74.050839, 4.693958]}, "properties": {"tipo": "Parqueadero Bici", "cupo_bici": 4, "geopoint": [4.693958, -74.050839], "direccion": "AK 19 No.106A-45", "x": -74.050839, "y": 4.693958, "nombre": "Frisby"}},{"type": "Feature", "geometry": {"type": "Point", "coordinates": [-74.046424627, 4.757389658]}, "properties": {"tipo": "Parqueadero Bici", "cupo_bici": 8, "geopoint": [4.757389658, -74.046424627], "direccion": "AK 45 No. 176 - 31", "x": -74.046424627, "y": 4.757389658, "nombre": "Colsubsidio Nueva Zelanda"}},{"type": "Feature", "geometry": {"type": "Point", "coordinates": [-74.042628858, 4.777304387]}, "properties": {"tipo": "Parqueadero Bici", "cupo_bici": 100, "geopoint": [4.777304387, -74.042628858], "direccion": "AK 45 No. 197-75", "x": -74.042628858, "y": 4.777304387, "nombre": "Mega Outlet"}},{"type": "Feature", "geometry": {"type": "Point", "coordinates": [-74.129481, 4.645173]}, "properties": {"tipo": "Parqueadero Bici", "cupo_bici": 24, "geopoint": [4.645173, -74.129481], "direccion": "Cl 12B No. 71D - 61", "x": -74.129481, "y": 4.645173, "nombre": "Bazaar Alsacia"}},{"type": "Feature", "geometry": {"type": "Point", "coordinates": [-74.060495, 4.646627]}, "properties": {"tipo": "Parqueadero Bici", "cupo_bici": 12, "geopoint": [4.646627, -74.060495], "direccion": "KR 7 No. 61- 47", "x": -74.060495, "y": 4.646627, "nombre": "BodyTech Chapinero"}},{"type": "Feature", "geometry": {"type": "Point", "coordinates": [-74.066127, 4.728943]}, "properties": {"tipo": "Parqueadero Bici", "cupo_bici": 15, "geopoint": [4.728943, -74.066127], "direccion": "CL 138 No. 58-74", "x": -74.066127, "y": 4.728943, "nombre": "BodyTech Colina"}},{"type": "Feature", "geometry": {"type": "Point", "coordinates": [-74.0499159, 4.6717692]}, "properties": {"tipo": "Parqueadero Bici", "cupo_bici": 15, "geopoint": [4.6717692, -74.0499159], "direccion": "KR 11A No. 88-49", "x": -74.0499159, "y": 4.6717692, "nombre": "KR 11A No. 88-49"}},{"type": "Feature", "geometry": {"type": "Point", "coordinates": [-74.052948, 4.680179]}, "properties": {"tipo": "Parqueadero Bici", "cupo_bici": 4, "geopoint": [4.680179, -74.052948], "direccion": "KR 18 No. 93B-49", "x": -74.052948, "y": 4.680179, "nombre": "Dan Carlton"}},{"type": "Feature", "geometry": {"type": "Point", "coordinates": [-74.070929, 4.601471]}, "properties": {"tipo": "Parqueadero Bici", "cupo_bici": 2, "geopoint": [4.601471, -74.070929], "direccion": "CL 16  No.  04-68", "x": -74.070929, "y": 4.601471, "nombre": "Jockey Club"}},{"type": "Feature", "geometry": {"type": "Point", "coordinates": [-74.059374, 4.669894]}, "properties": {"tipo": "Parqueadero Bici", "cupo_bici": 36, "geopoint": [4.669894, -74.059374], "direccion": "KR 19B No. 83 - 05", "x": -74.059374, "y": 4.669894, "nombre": "Body 83"}},{"type": "Feature", "geometry": {"type": "Point", "coordinates": [-74.071016, 4.6102]}, "properties": {"tipo": "Parqueadero Bici", "cupo_bici": 18, "geopoint": [4.6102, -74.071016], "direccion": "KR 9 No. 23-75", "x": -74.071016, "y": 4.6102, "nombre": "Intercentro"}},{"type": "Feature", "geometry": {"type": "Point", "coordinates": [-74.05700326, 4.654828299]}, "properties": {"tipo": "Parqueadero Bici", "cupo_bici": 40, "geopoint": [4.654828299, -74.05700326], "direccion": "CL 70A No. 8 - 04", "x": -74.05700326, "y": 4.654828299, "nombre": "Claustro de la Ense\u00f1anza"}},{"type": "Feature", "geometry": {"type": "Point", "coordinates": [-74.056148036, 4.657707268]}, "properties": {"tipo": "Parqueadero Bici", "cupo_bici": 4, "geopoint": [4.657707268, -74.056148036], "direccion": "CL 74 No. 9-21", "x": -74.056148036, "y": 4.657707268, "nombre": "Crepes & Wafles"}},{"type": "Feature", "geometry": {"type": "Point", "coordinates": [-74.049011671, 4.672215871]}, "properties": {"tipo": "Parqueadero Bici", "cupo_bici": 50, "geopoint": [4.672215871, -74.049011671], "direccion": "CL 90 No. 11-13", "x": -74.049011671, "y": 4.672215871, "nombre": "Urban Plaza"}},{"type": "Feature", "geometry": {"type": "Point", "coordinates": [-74.051722585, 4.67905183]}, "properties": {"tipo": "Parqueadero Bici", "cupo_bici": 4, "geopoint": [4.67905183, -74.051722585], "direccion": "CL 93B No.15-80", "x": -74.051722585, "y": 4.67905183, "nombre": "CL 93B No.15-80"}},{"type": "Feature", "geometry": {"type": "Point", "coordinates": [-74.060418, 4.649249]}, "properties": {"tipo": "Parqueadero Bici", "cupo_bici": 4, "geopoint": [4.649249, -74.060418], "direccion": "KR 8 No.64-30 CL 64", "x": -74.060418, "y": 4.649249, "nombre": "KR 8 No. 64-30"}},{"type": "Feature", "geometry": {"type": "Point", "coordinates": [-74.056129001, 4.669600743]}, "properties": {"tipo": "Parqueadero Bici", "cupo_bici": 60, "geopoint": [4.669600743, -74.056129001], "direccion": "CL 85 No. 16-07", "x": -74.056129001, "y": 4.669600743, "nombre": "Park 85"}},{"type": "Feature", "geometry": {"type": "Point", "coordinates": [-74.0524786, 4.668321]}, "properties": {"tipo": "Parqueadero Bici", "cupo_bici": 20, "geopoint": [4.668321, -74.0524786], "direccion": "KR 12 No.84-42", "x": -74.0524786, "y": 4.668321, "nombre": "KR 12 No. 84-42"}},{"type": "Feature", "geometry": {"type": "Point", "coordinates": [-74.054048739, 4.674845353]}, "properties": {"tipo": "Parqueadero Bici", "cupo_bici": 24, "geopoint": [4.674845353, -74.054048739], "direccion": "CL 90 No. 16-05", "x": -74.054048739, "y": 4.674845353, "nombre": "Park 90"}},{"type": "Feature", "geometry": {"type": "Point", "coordinates": [-74.048531, 4.681458]}, "properties": {"tipo": "Parqueadero Bici", "cupo_bici": 24, "geopoint": [4.681458, -74.048531], "direccion": "KR 14 No 96-55", "x": -74.048531, "y": 4.681458, "nombre": "Park 97"}},{"type": "Feature", "geometry": {"type": "Point", "coordinates": [-74.057024, 4.6855]}, "properties": {"tipo": "Parqueadero Bici", "cupo_bici": 10, "geopoint": [4.6855, -74.057024], "direccion": "AK 45 No 97-50", "x": -74.057024, "y": 4.6855, "nombre": "Porto 100"}},{"type": "Feature", "geometry": {"type": "Point", "coordinates": [-74.108524472, 4.652719013]}, "properties": {"tipo": "Parqueadero Bici", "cupo_bici": 7, "geopoint": [4.652719013, -74.108524472], "direccion": "AV Esperanza x KR 68B", "x": -74.108524472, "y": 4.652719013, "nombre": "McDonalds Salitre"}},{"type": "Feature", "geometry": {"type": "Point", "coordinates": [-74.050398, 4.695634]}, "properties": {"tipo": "Parqueadero Bici", "cupo_bici": 4, "geopoint": [4.695634, -74.050398], "direccion": "AK 19 No. 109-50", "x": -74.050398, "y": 4.695634, "nombre": "City Parking  CL 109"}}]}